{
    "offset": 0,
    "limit": -1,
    "count": 42,
    "results":
    [
        {
            "name": "Mercat de l'Estrella",
            "web":
            [
                "http://mercatlestrella.com",
                "http://www.barcelona.cat/mercats"
            ],
            "email": "manzaning.com/compra-online/barcelona/mercados,mercatestrella@bcn.cat",
            "phone": "934132315",
            "addresses":
            [
                {
                    "street_name": "Carrer de Pi i Margall",
                    "street_number": 73,
                    "zip_code": "08024",
                    "town": "Barcelona",
                    "district_id": "06",
                    "location":
                    {
                        "x": 41.409911094905624,
                        "y": 2.1639930826470137
                    }
                }
            ],
            "activity":
            {
                "id": 39319349,
                "name": "Mercats zonals"
            }
        },
        {
            "name": "Mercat de Vall d'Hebron -Teixonera",
            "web":
            [
                "http://www.barcelona.cat/mercats"
            ],
            "email": "mercatvallhebron@bcn.cat",
            "phone": "934132344,936399913",
            "addresses":
            [
                {
                    "street_name": "Pg Vall d'Hebron",
                    "street_number": 130,
                    "zip_code": "08035",
                    "town": "BARCELONA",
                    "district_id": "07",
                    "location":
                    {
                        "x": 41.42406217314218,
                        "y": 2.142452280248374
                    }
                }
            ],
            "activity":
            {
                "id": 39319349,
                "name": "Mercats zonals"
            }
        },
        {
            "name": "Mercat d'Horta",
            "web":
            [
                "https://manzaning.com/compra-online/barcelona/mercados",
                "http://www.barcelona.cat/mercats",
                "http://www.mercathorta.com"
            ],
            "email": "info@mercathorta.com",
            "phone": "934204858,934132339",
            "addresses":
            [
                {
                    "street_name": "Carrer del Tajo",
                    "street_number": 75,
                    "zip_code": "08032",
                    "town": "Barcelona",
                    "district_id": "07",
                    "location":
                    {
                        "x": 41.42962510164449,
                        "y": 2.1596089875560494
                    }
                }
            ],
            "activity":
            {
                "id": 63697351,
                "name": "Mercats verds "
            }
        },
        {
            "name": "Mercat de La Mercè",
            "web":
            [
                "http://www.barcelona.cat/mercats",
                "http://www.mercatdelamerce.cat"
            ],
            "email": "mercatmerce@bcn.cat",
            "phone": "934132340,934201364,693297256",
            "addresses":
            [
                {
                    "street_name": "Passeig de Fabra i Puig",
                    "street_number": 270,
                    "zip_code": "08031",
                    "town": "Barcelona",
                    "district_id": "08",
                    "location":
                    {
                        "x": 41.430483134921964,
                        "y": 2.1735994954221325
                    }
                }
            ],
            "activity":
            {
                "id": 39319349,
                "name": "Mercats zonals"
            }
        },
        {
            "name": "Mercat del Bon Pastor",
            "web":
            [
                "https://manzaning.com/compra-online/barcelona/mercados",
                "http://www.barcelona.cat/mercats"
            ],
            "email": "mercatbonpastor@bcn.cat",
            "phone": "934132333",
            "addresses":
            [
                {
                    "street_name": "C Sant Adrià",
                    "street_number": 154,
                    "zip_code": "08030",
                    "town": "BARCELONA",
                    "district_id": "09",
                    "location":
                    {
                        "x": 41.43601348746425,
                        "y": 2.206172152917636
                    }
                }
            ],
            "activity":
            {
                "id": 39319349,
                "name": "Mercats zonals"
            }
        },
        {
            "name": "Mercat Dominical de Sant Antoni",
            "web":
            [
                "http://www.mercatdominicaldesantantoni.com",
                "http://www.mercatdesantantoni.com"
            ],
            "email": "",
            "phone": "934132300",
            "addresses":
            [
                {
                    "street_name": "C Comte d'Urgell",
                    "street_number": 1,
                    "zip_code": "08011",
                    "town": "BARCELONA",
                    "district_id": "02",
                    "location":
                    {
                        "x": 41.37956821941282,
                        "y": 2.161743115837759
                    }
                }
            ],
            "activity":
            {
                "id": 1008013,
                "name": "Venda de productes de segona mà"
            }
        },
        {
            "name": "Mercat de Ciutat Meridiana",
            "web":
            [
                "http://www.barcelona.cat/mercats"
            ],
            "email": "mercatciutatmeridiana@bcn.cat",
            "phone": "934132336",
            "addresses":
            [
                {
                    "street_name": "Carrer de Costabona",
                    "street_number": 4,
                    "zip_code": "08033",
                    "town": "Barcelona",
                    "district_id": "08",
                    "location":
                    {
                        "x": 41.46171736162206,
                        "y": 2.1778115794473596
                    }
                }
            ],
            "activity":
            {
                "id": 39319349,
                "name": "Mercats zonals"
            }
        },
        {
            "name": "Mercat de Sant Josep - La Boqueria",
            "web":
            [
                "https://manzaning.com/compra-online/barcelona/mercados",
                "http://www.barcelona.cat/mercats",
                "http://www.boqueria.barcelona"
            ],
            "email": "mercatboqueria@bcn.cat",
            "phone": "934132303,934132345,933040270",
            "addresses":
            [
                {
                    "street_name": "Carrer la Rambla",
                    "street_number": 89,
                    "zip_code": "08002",
                    "town": "Barcelona",
                    "district_id": "01",
                    "location":
                    {
                        "x": 41.382048894375004,
                        "y": 2.1722707591057397
                    }
                }
            ],
            "activity":
            {
                "id": 39319349,
                "name": "Mercats zonals"
            }
        },
        {
            "name": "Mercat de Santa Caterina",
            "web":
            [
                "http://www.barcelona.cat/mercats"
            ],
            "email": "compra@mercatsantacaterina.cat,compra@mercatsantacaterina.com,mercatsantacaterina@bcn.cat",
            "phone": "934132298,933195740",
            "addresses":
            [
                {
                    "street_name": "Av Francesc Cambó",
                    "street_number": 16,
                    "zip_code": "08003",
                    "town": "BARCELONA",
                    "district_id": "01",
                    "location":
                    {
                        "x": 41.38639488164491,
                        "y": 2.1781771121189712
                    }
                }
            ],
            "activity":
            {
                "id": 39319349,
                "name": "Mercats zonals"
            }
        },
        {
            "name": "Mercat d'Hostafrancs",
            "web":
            [
                "http://manzaning.com/compra-online/barcelona/mercados",
                "http://www.barcelona.cat/mercats"
            ],
            "email": "mercathostafrancs@bcn.cat",
            "phone": "934132307",
            "addresses":
            [
                {
                    "street_name": "Carrer de la Creu Coberta",
                    "street_number": 93,
                    "zip_code": "08014",
                    "town": "Barcelona",
                    "district_id": "03",
                    "location":
                    {
                        "x": 41.37516234439833,
                        "y": 2.143853943380838
                    }
                }
            ],
            "activity":
            {
                "id": 39319349,
                "name": "Mercats zonals"
            }
        },
        {
            "name": "Mercat de Sants",
            "web":
            [
                "http://manzaning.com/compra-online/barcelona/mercados",
                "http://www.ulabox.com",
                "http://www.barcelona.cat/mercats",
                "http://santsmercat.com"
            ],
            "email": "mercatsants@bcn.cat",
            "phone": "932694472,934132299",
            "addresses":
            [
                {
                    "street_name": "C Sant Jordi",
                    "street_number": 6,
                    "zip_code": "08028",
                    "town": "BARCELONA",
                    "district_id": "03",
                    "location":
                    {
                        "x": 41.37474144032811,
                        "y": 2.1337546284183255
                    }
                }
            ],
            "activity":
            {
                "id": 63697351,
                "name": "Mercats verds "
            }
        },
        {
            "name": "Mercat de La Marina",
            "web":
            [
                "http://manzaning.com/compra-online/barcelona/mercados",
                "http://www.barcelona.cat/mercats"
            ],
            "email": "mercatmarina@bcn.cat",
            "phone": "934132308",
            "addresses":
            [
                {
                    "street_name": "Passeig de la Zona Franca",
                    "street_number": 178,
                    "zip_code": "08038",
                    "town": "Barcelona",
                    "district_id": "03",
                    "location":
                    {
                        "x": 41.36038025969584,
                        "y": 2.1391929530213143
                    }
                }
            ],
            "activity":
            {
                "id": 39319349,
                "name": "Mercats zonals"
            }
        },
        {
            "name": "Mercat de Sant Andreu",
            "web":
            [
                "http://manzaning.com/compra-online/barcelona/mercados/mercat-de-sant-andreu",
                "http://www.barcelona.cat/mercats"
            ],
            "email": "mercatsantandreu@bcn.cat",
            "phone": "934132342",
            "addresses":
            [
                {
                    "street_name": "C Sant Adrià",
                    "street_number": 21,
                    "zip_code": "08030",
                    "town": "BARCELONA",
                    "district_id": "09",
                    "location":
                    {
                        "x": 41.433957828399265,
                        "y": 2.1910236290323994
                    }
                }
            ],
            "activity":
            {
                "id": 39319349,
                "name": "Mercats zonals"
            }
        },
        {
            "name": "Mercat de Sant Gervasi",
            "web":
            [
                "http://Htpps://mercatonlinesantgervasi.com",
                "https://manzaning.com/compra-online/barcelona/mercados",
                "http://www.ulabox.com",
                "http://www.barcelona.cat/mercats",
                "http://www.mercatdesantgervasi.com"
            ],
            "email": "mercatsantgervasi@bcn.cat",
            "phone": "934132325",
            "addresses":
            [
                {
                    "street_name": "Pl Joaquim Folguera",
                    "street_number": 6,
                    "zip_code": "08022",
                    "town": "BARCELONA",
                    "district_id": "05",
                    "location":
                    {
                        "x": 41.40566335305059,
                        "y": 2.138545571747631
                    }
                }
            ],
            "activity":
            {
                "id": 39319349,
                "name": "Mercats zonals"
            }
        },
        {
            "name": "Mercat Encants Vells Fira de Bellcaire",
            "web":
            [
                "https://encantsbarcelona.com/"
            ],
            "email": "mercatbellcaire@mercatsbcn.cat",
            "phone": "934132328,934132329",
            "addresses":
            [
                {
                    "street_name": "Carrer de los Castillejos",
                    "street_number": 158,
                    "zip_code": "08013",
                    "town": "Barcelona",
                    "district_id": "02",
                    "location":
                    {
                        "x": 41.401063548775554,
                        "y": 2.1856692459565465
                    }
                },
                {
                    "street_name": "Avinguda Meridiana",
                    "street_number": 69,
                    "zip_code": "08018",
                    "town": "Barcelona",
                    "district_id": "02",
                    "location":
                    {
                        "x": 41.401063548775554,
                        "y": 2.1856692459565465
                    }
                }
            ],
            "activity":
            {
                "id": 46356348,
                "name": "Àrea II"
            }
        },
        {
            "name": "Mercat de Lesseps",
            "web":
            [
                "https://manzaning.com/compra-online/barcelona/mercados",
                "http://www.barcelona.cat/mercats",
                "http://www.mercatdelesseps.cat"
            ],
            "email": "mercatlesseps@bcn.cat",
            "phone": "934132319",
            "addresses":
            [
                {
                    "street_name": "Carrer de Verdi",
                    "street_number": 200,
                    "zip_code": "08024",
                    "town": "Barcelona",
                    "district_id": "06",
                    "location":
                    {
                        "x": 41.40913237323212,
                        "y": 2.1520583716061497
                    }
                }
            ],
            "activity":
            {
                "id": 63697351,
                "name": "Mercats verds "
            }
        },
        {
            "name": "Mercat Encants de Sant Antoni",
            "web":
            [
                "http://www.barcelona.cat/mercats",
                "http://www.mercatdesantantoni.com"
            ],
            "email": "",
            "phone": "934132300",
            "addresses":
            [
                {
                    "street_name": "C Comte d'Urgell",
                    "street_number": 1,
                    "zip_code": "08011",
                    "town": "BARCELONA",
                    "district_id": "02",
                    "location":
                    {
                        "x": 41.38130154687465,
                        "y": 2.1634511872440987
                    }
                }
            ],
            "activity":
            {
                "id": 46356348,
                "name": "Àrea II"
            }
        },
        {
            "name": "Mercat del Clot",
            "web":
            [
                "http://www.mercatdelclot.net",
                "http://www.barcelona.cat/mercats",
                "http://manzaning.com/compra-online/barcelona/mercados"
            ],
            "email": "mercatclot@bcn.cat",
            "phone": "934132306,932659090",
            "addresses":
            [
                {
                    "street_name": "Pl Mercat",
                    "street_number": 26,
                    "zip_code": "08018",
                    "town": "BARCELONA",
                    "district_id": "10",
                    "location":
                    {
                        "x": 41.40761694241932,
                        "y": 2.1886443723650215
                    }
                }
            ],
            "activity":
            {
                "id": 63697351,
                "name": "Mercats verds "
            }
        },
        {
            "name": "Mercat del Poblenou",
            "web":
            [
                "http://www.mercatpoblenou.com",
                "http://www.barcelona.cat/mercats",
                "http://manzaning.com/compra-online/barcelona/mercados"
            ],
            "email": "mercatpoblenou@bcn.cat",
            "phone": "934132309",
            "addresses":
            [
                {
                    "street_name": "Pl Unió",
                    "street_number": 25,
                    "zip_code": "08005",
                    "town": "BARCELONA",
                    "district_id": "10",
                    "location":
                    {
                        "x": 41.40102174848232,
                        "y": 2.2054291963991535
                    }
                }
            ],
            "activity":
            {
                "id": 39319349,
                "name": "Mercats zonals"
            }
        },
        {
            "name": "Mercat de Provençals",
            "web":
            [
                "https://www.mercatprovençals.com/",
                "http://www.barcelona.cat/mercats",
                "http://manzaning.com/compra-online/barcelona/mercados"
            ],
            "email": "mercatprovensals@bcn.cat",
            "phone": "662002663,934132296",
            "addresses":
            [
                {
                    "street_name": "Carrer de Menorca",
                    "street_number": 19,
                    "zip_code": "08020",
                    "town": "Barcelona",
                    "district_id": "10",
                    "location":
                    {
                        "x": 41.41945750050879,
                        "y": 2.1964853596577782
                    }
                }
            ],
            "activity":
            {
                "id": 39319349,
                "name": "Mercats zonals"
            }
        },
        {
            "name": "Mercat de les Flors *Les Rambles",
            "web":
            [],
            "email": "",
            "phone": "-",
            "addresses":
            [
                {
                    "street_name": "C la Rambla",
                    "street_number": 116,
                    "zip_code": "08002",
                    "town": "BARCELONA",
                    "district_id": "01",
                    "location":
                    {
                        "x": 41.38298645419762,
                        "y": 2.1719482422846794
                    }
                }
            ],
            "activity":
            {
                "id": 1011011,
                "name": "Mercats i fires al carrer"
            }
        },
        {
            "name": "Mercat de l'Abaceria Central",
            "web":
            [
                "https://manzaning.com/compra-online/barcelona/mercados",
                "http://www.barcelona.cat/mercats"
            ],
            "email": "mercatabaceria@bcn.cat",
            "phone": "934132313",
            "addresses":
            [
                {
                    "street_name": "Pg Sant Joan",
                    "street_number": 181,
                    "zip_code": "08037",
                    "town": "BARCELONA",
                    "district_id": "06",
                    "location":
                    {
                        "x": 41.403186528682156,
                        "y": 2.1641791642522206
                    }
                }
            ],
            "activity":
            {
                "id": 39319349,
                "name": "Mercats zonals"
            }
        },
        {
            "name": "Mercat de La Concepció",
            "web":
            [
                "https://manzaning.com/compra-online/barcelona/mercados",
                "http://www.barcelona.cat/mercats",
                "http://www.laconcepcio.cat"
            ],
            "email": "mercatconcepcio@bcn.cat",
            "phone": "934132314,934764870",
            "addresses":
            [
                {
                    "street_name": "Carrer d'Aragó",
                    "street_number": 311,
                    "zip_code": "08009",
                    "town": "Barcelona",
                    "district_id": "02",
                    "location":
                    {
                        "x": 41.39556815947775,
                        "y": 2.169071648271845
                    }
                }
            ],
            "activity":
            {
                "id": 63697351,
                "name": "Mercats verds "
            }
        },
        {
            "name": "Mercat de la Sagrada Família",
            "web":
            [
                "http://manzaning.com/compra-online/barcelona/mercados",
                "http://www.barcelona.cat/mercats",
                "http://www.mercatsagradafamilia.com"
            ],
            "email": "mercatsagradafamilia@bcn.cat",
            "phone": "934132324,934562953",
            "addresses":
            [
                {
                    "street_name": "Carrer de Padilla",
                    "street_number": 255,
                    "zip_code": "08013",
                    "town": "Barcelona",
                    "district_id": "02",
                    "location":
                    {
                        "x": 41.40571844762519,
                        "y": 2.177029420136341
                    }
                }
            ],
            "activity":
            {
                "id": 39319349,
                "name": "Mercats zonals"
            }
        },
        {
            "name": "Mercat de Sant Antoni",
            "web":
            [
                "http://manzaning.com/compra-online/barcelona/mercados",
                "http://www.barcelona.cat/mercats",
                "http://www.mercatdesantantoni.com"
            ],
            "email": "mercatsantantoni@bcn.cat",
            "phone": "934132300,934132301,934263521",
            "addresses":
            [
                {
                    "street_name": "Carrer del Comte d'Urgell",
                    "street_number": 1,
                    "zip_code": "08011",
                    "town": "Barcelona",
                    "district_id": "02",
                    "location":
                    {
                        "x": 41.37956821941282,
                        "y": 2.161743115837759
                    }
                }
            ],
            "activity":
            {
                "id": 39319349,
                "name": "Mercats zonals"
            }
        },
        {
            "name": "Mercat de Les Corts",
            "web":
            [
                "http://www.barcelona.cat/mercats",
                "http://mercatdelescorts.cat"
            ],
            "email": "mercatlescorts@bcn.cat",
            "phone": "667570336,934132318",
            "addresses":
            [
                {
                    "street_name": "Travessera de les Corts",
                    "street_number": 215,
                    "zip_code": "08028",
                    "town": "Barcelona",
                    "district_id": "04",
                    "location":
                    {
                        "x": 41.38407806063042,
                        "y": 2.1298048647400445
                    }
                }
            ],
            "activity":
            {
                "id": 63697351,
                "name": "Mercats verds "
            }
        },
        {
            "name": "Mercat de Galvany",
            "web":
            [
                "https://manzaning.com/compra-online/barcelona/mercados",
                "http://www.barcelona.cat/mercats"
            ],
            "email": "mercatgalvany@bcn.cat",
            "phone": "934132317",
            "addresses":
            [
                {
                    "street_name": "Carrer de Santaló",
                    "street_number": 65,
                    "zip_code": "08021",
                    "town": "Barcelona",
                    "district_id": "05",
                    "location":
                    {
                        "x": 41.39668239144884,
                        "y": 2.143678943368952
                    }
                }
            ],
            "activity":
            {
                "id": 39319349,
                "name": "Mercats zonals"
            }
        },
        {
            "name": "Mercat de Les Tres Torres",
            "web":
            [
                "https://manzaning.com/compra-online/barcelona/mercados",
                "http://www.barcelona.cat/mercats"
            ],
            "email": "mercattrestorres@bcn.cat",
            "phone": "934132327",
            "addresses":
            [
                {
                    "street_name": "Carrer dels Vergós",
                    "street_number": 2,
                    "zip_code": "08017",
                    "town": "Barcelona",
                    "district_id": "05",
                    "location":
                    {
                        "x": 41.39994475791636,
                        "y": 2.131280890433586
                    }
                }
            ],
            "activity":
            {
                "id": 39319349,
                "name": "Mercats zonals"
            }
        },
        {
            "name": "Mercat del Guinardó",
            "web":
            [
                "http://www.barcelona.cat/mercats"
            ],
            "email": "mercatguinardo@bcn.cat",
            "phone": "934132332",
            "addresses":
            [
                {
                    "street_name": "C Teodor Llorente",
                    "street_number": 10,
                    "zip_code": "08041",
                    "town": "BARCELONA",
                    "district_id": "07",
                    "location":
                    {
                        "x": 41.419151850876226,
                        "y": 2.179721442393662
                    }
                }
            ],
            "activity":
            {
                "id": 39319349,
                "name": "Mercats zonals"
            }
        },
        {
            "name": "Mercat de La Guineueta",
            "web":
            [
                "http://manzaning.com/compra-online/barcelona/mercados",
                "http://www.mercatguineueta.com",
                "http://www.barcelona.cat/mercats"
            ],
            "email": "mercatguineueta@bcn.cat",
            "phone": "934132338",
            "addresses":
            [
                {
                    "street_name": "Passeig de Valldaura",
                    "street_number": 186,
                    "zip_code": "08042",
                    "town": "Barcelona",
                    "district_id": "08",
                    "location":
                    {
                        "x": 41.43865254771624,
                        "y": 2.170245672758619
                    }
                }
            ],
            "activity":
            {
                "id": 39319349,
                "name": "Mercats zonals"
            }
        },
        {
            "name": "Mercat del Fort Pienc",
            "web":
            [
                "http://www.barcelona.cat/mercats"
            ],
            "email": "mercatfortpienc@bcn.cat",
            "phone": "934132316",
            "addresses":
            [
                {
                    "street_name": "Pl Fort Pienc",
                    "street_number": 3,
                    "zip_code": "08013",
                    "town": "BARCELONA",
                    "district_id": "02",
                    "location":
                    {
                        "x": 41.39577357186832,
                        "y": 2.182541089615223
                    }
                }
            ],
            "activity":
            {
                "id": 39319349,
                "name": "Mercats zonals"
            }
        },
        {
            "name": "Mercat de Canyelles",
            "web":
            [
                "http://www.barcelona.cat/mercats",
                "http://www.mercatcanyelles.com"
            ],
            "email": "mercatcanyelles@bcn.cat",
            "phone": "934132324",
            "addresses":
            [
                {
                    "street_name": "Carrer d'Antonio Machado",
                    "street_number": 10,
                    "zip_code": "08042",
                    "town": "Barcelona",
                    "district_id": "08",
                    "location":
                    {
                        "x": 41.44198819289088,
                        "y": 2.16442712064519
                    }
                }
            ],
            "activity":
            {
                "id": 39319349,
                "name": "Mercats zonals"
            }
        },
        {
            "name": "Mercat de Felip II",
            "web":
            [
                "http://manzaning.com/compra-online/barcelona/mercados",
                "http://www.barcelona.cat/mercats"
            ],
            "email": "mercatfelip@bcn.cat",
            "phone": "934132337,933516434",
            "addresses":
            [
                {
                    "street_name": "Carrer de Felip II",
                    "street_number": 118,
                    "zip_code": "08027",
                    "town": "Barcelona",
                    "district_id": "09",
                    "location":
                    {
                        "x": 41.42202611203264,
                        "y": 2.1850927220559564
                    }
                }
            ],
            "activity":
            {
                "id": 39319349,
                "name": "Mercats zonals"
            }
        },
        {
            "name": "Mercat de Sant Martí",
            "web":
            [
                "http://www.barcelona.cat/mercats"
            ],
            "email": "mercatsantmarti@bcn.cat",
            "phone": "934132297",
            "addresses":
            [
                {
                    "street_name": "Carrer de Puigcerdà",
                    "street_number": 206,
                    "zip_code": "08020",
                    "town": "Barcelona",
                    "district_id": "10",
                    "location":
                    {
                        "x": 41.41865648109575,
                        "y": 2.2053227925569847
                    }
                }
            ],
            "activity":
            {
                "id": 63697351,
                "name": "Mercats verds "
            }
        },
        {
            "name": "Mercat del Besòs",
            "web":
            [
                "http://www.barcelona.cat/mercats",
                "http://manzaning.com/compra-online/barcelona/mercados"
            ],
            "email": "mercatbesos@bcn.cat",
            "phone": "934132305",
            "addresses":
            [
                {
                    "street_name": "C Jaume Huguet",
                    "street_number": 38,
                    "zip_code": "08019",
                    "town": "BARCELONA",
                    "district_id": "10",
                    "location":
                    {
                        "x": 41.419232167534055,
                        "y": 2.2151291359475485
                    }
                }
            ],
            "activity":
            {
                "id": 39319349,
                "name": "Mercats zonals"
            }
        },
        {
            "name": "Mercat de La Barceloneta",
            "web":
            [
                "https://manzaning.com/compra-online/barcelona/mercados",
                "http://www.barcelona.cat/mercats"
            ],
            "email": "mercatbarceloneta@bcn.cat",
            "phone": "607 906 658,934132304",
            "addresses":
            [
                {
                    "street_name": "Plaça del Poeta Boscà",
                    "street_number": 1,
                    "zip_code": "08003",
                    "town": "Barcelona",
                    "district_id": "01",
                    "location":
                    {
                        "x": 41.38024616800818,
                        "y": 2.18928120267198
                    }
                }
            ],
            "activity":
            {
                "id": 39319349,
                "name": "Mercats zonals"
            }
        },
        {
            "name": "Mercat del Ninot",
            "web":
            [
                "http://manzaning.com/compra-online/barcelona/mercados",
                "http://www.ulabox.com",
                "http://www.barcelona.cat/mercats",
                "http://www.mercatdelninot.com",
                "https://www.facebook.com/Mercat-del-Ninot",
                "https://twitter.com/mercatdelninot",
                "https://www.instagram.com/mercatdelninot/"
            ],
            "email": "mercatninot@bcn.cat",
            "phone": "934132322,934530360",
            "addresses":
            [
                {
                    "street_name": "Carrer de Mallorca",
                    "street_number": 133,
                    "zip_code": "08036",
                    "town": "Barcelona",
                    "district_id": "02",
                    "location":
                    {
                        "x": 41.38785716567696,
                        "y": 2.1544122344047523
                    }
                }
            ],
            "activity":
            {
                "id": 39319349,
                "name": "Mercats zonals"
            }
        },
        {
            "name": "Mercat de Sarrià",
            "web":
            [
                "http://manzaning.com/compra-online/barcelona/mercados",
                "http://www.barcelona.cat/mercats",
                "http://www.mercatsarria.com"
            ],
            "email": "mercatsarria@bcn.cat",
            "phone": "934132326,932802782",
            "addresses":
            [
                {
                    "street_name": "Pg Reina Elisenda Montcada",
                    "street_number": 8,
                    "zip_code": "08034",
                    "town": "BARCELONA",
                    "district_id": "05",
                    "location":
                    {
                        "x": 41.399835932090404,
                        "y": 2.1207231796604993
                    }
                }
            ],
            "activity":
            {
                "id": 39319349,
                "name": "Mercats zonals"
            }
        },
        {
            "name": "Mercat de Montserrat",
            "web":
            [
                "http://manzaning.com/compra-online/barcelona/mercados",
                "http://www.barcelona.cat/mercats",
                "http://www.mercatmontserrat.com"
            ],
            "email": "mercatmontserrat@bcn.cat",
            "phone": "934132341,696 731 950",
            "addresses":
            [
                {
                    "street_name": "Via Favència",
                    "street_number": 241,
                    "zip_code": "08042",
                    "town": "Barcelona",
                    "district_id": "08",
                    "location":
                    {
                        "x": 41.446325072623445,
                        "y": 2.1787888337114434
                    }
                }
            ],
            "activity":
            {
                "id": 39319349,
                "name": "Mercats zonals"
            }
        },
        {
            "name": "Mercat de la Llibertat",
            "web":
            [
                "http://www.barcelona.cat/mercats",
                "https://www.facebook.com/elmercatdelallibertat",
                "https://www.instagram.com/mercatllibertat/"
            ],
            "email": "mercatllibertat@bcn.cat",
            "phone": "933687946,934132323",
            "addresses":
            [
                {
                    "street_name": "Plaça de la Llibertat",
                    "street_number": 27,
                    "zip_code": "08012",
                    "town": "Barcelona",
                    "district_id": "06",
                    "location":
                    {
                        "x": 41.39973784880562,
                        "y": 2.1537484882528983
                    }
                }
            ],
            "activity":
            {
                "id": 63697351,
                "name": "Mercats verds "
            }
        },
        {
            "name": "Mercat del Carmel",
            "web":
            [
                "https://manzaning.com/compra-online/barcelona/mercados",
                "http://www.barcelona.cat/mercats",
                "https://www.facebook.com/mercatdelcarmel",
                "https://twitter.com/MercatDelCarmel",
                "https://www.instagram.com/mercatdelcarmel"
            ],
            "email": "mercatcarmel@bcn.cat",
            "phone": "934132335,933589251",
            "addresses":
            [
                {
                    "street_name": "C Llobregós",
                    "street_number": 149,
                    "zip_code": "08032",
                    "town": "BARCELONA",
                    "district_id": "07",
                    "location":
                    {
                        "x": 41.42374046652592,
                        "y": 2.155809762118894
                    }
                }
            ],
            "activity":
            {
                "id": 39319349,
                "name": "Mercats zonals"
            }
        },
        {
            "name": "Mercat de La Trinitat",
            "web":
            [
                "http://www.barcelona.cat/mercats",
                "https://www.facebook.com/mercatdelatrinitat"
            ],
            "email": "mercattrinitat@bcn.cat",
            "phone": "934132343",
            "addresses":
            [
                {
                    "street_name": "Carrer de la Pedrosa",
                    "street_number": 21,
                    "zip_code": "08033",
                    "town": "Barcelona",
                    "district_id": "08",
                    "location":
                    {
                        "x": 41.44869202746852,
                        "y": 2.1842333444483297
                    }
                }
            ],
            "activity":
            {
                "id": 39319349,
                "name": "Mercats zonals"
            }
        }
    ]
}